{
  "rynearson stadium|ypsilanti|mi": {
    "name": "Rynearson Stadium",
    "city": "Ypsilanti",
    "state": "MI",
    "indoor": false,
    "grass": false,
    "lat": 42.2558724,
    "lon": -83.6473747,
    "source": "combined_espn"
  },
  "simmons bank liberty stadium|memphis|tn": {
    "name": "Simmons Bank Liberty Stadium",
    "city": "Memphis",
    "state": "TN",
    "indoor": false,
    "grass": false,
    "lat": 35.1211305,
    "lon": -89.9774153,
    "source": "combined_espn"
  },
  "david booth kansas memorial stadium|lawrence|ks": {
    "name": "David Booth Kansas Memorial Stadium",
    "city": "Lawrence",
    "state": "KS",
    "indoor": false,
    "grass": false,
    "lat": 38.9630786,
    "lon": -95.2462865,
    "source": "combined_espn"
  },
  "memorial stadium (lincoln, ne)|lincoln|ne": {
    "name": "Memorial Stadium (Lincoln, NE)",
    "city": "Lincoln",
    "state": "NE",
    "indoor": false,
    "grass": false,
    "lat": 40.8207179,
    "lon": -96.7047562,
    "source": "combined_espn"
  },
  "huskie stadium|dekalb|il": {
    "name": "Huskie Stadium",
    "city": "Dekalb",
    "state": "IL",
    "indoor": false,
    "grass": false,
    "lat": 41.9340747,
    "lon": -88.7779701,
    "source": "combined_espn"
  },
  "canvas stadium|fort collins|co": {
    "name": "Canvas Stadium",
    "city": "Fort Collins",
    "state": "CO",
    "indoor": false,
    "grass": false,
    "lat": 40.5698314,
    "lon": -105.0885062,
    "source": "combined_espn"
  },
  "university stadium (nm)|albuquerque|nm": {
    "name": "University Stadium (NM)",
    "city": "Albuquerque",
    "state": "NM",
    "indoor": false,
    "grass": false,
    "lat": 35.0669629,
    "lon": -106.6282451,
    "source": "combined_espn"
  },
  "datcu stadium|denton|tx": {
    "name": "DATCU Stadium",
    "city": "Denton",
    "state": "TX",
    "indoor": false,
    "grass": false,
    "lat": 33.2039397,
    "lon": -97.1594204,
    "source": "combined_espn"
  },
  "maverik stadium|logan|ut": {
    "name": "Maverik Stadium",
    "city": "Logan",
    "state": "UT",
    "indoor": false,
    "grass": false,
    "lat": 41.7519374,
    "lon": -111.8116703,
    "source": "combined_espn"
  },
  "ross-ade stadium|west lafayette|in": {
    "name": "Ross-Ade Stadium",
    "city": "West Lafayette",
    "state": "IN",
    "indoor": false,
    "grass": true,
    "lat": 40.434568,
    "lon": -86.9184948,
    "source": "combined_espn"
  },
  "mountain america stadium|tempe|az": {
    "name": "Mountain America Stadium",
    "city": "Tempe",
    "state": "AZ",
    "indoor": false,
    "grass": true,
    "lat": 33.4263095,
    "lon": -111.932659,
    "source": "combined_espn"
  },
  "michigan stadium|ann arbor|mi": {
    "name": "Michigan Stadium",
    "city": "Ann Arbor",
    "state": "MI",
    "indoor": false,
    "grass": false,
    "lat": 42.2658749,
    "lon": -83.7486841,
    "source": "combined_espn"
  },
  "milan puskar stadium|morgantown|wv": {
    "name": "Milan Puskar Stadium",
    "city": "Morgantown",
    "state": "WV",
    "indoor": false,
    "grass": false,
    "lat": 39.6501842,
    "lon": -79.9549877,
    "source": "combined_espn"
  },
  "acrisure stadium|pittsburgh|pa": {
    "name": "Acrisure Stadium",
    "city": "Pittsburgh",
    "state": "PA",
    "indoor": false,
    "grass": true,
    "lat": 40.4467166,
    "lon": -80.0157199,
    "source": "combined_espn"
  },
  "mclane stadium|waco|tx": {
    "name": "McLane Stadium",
    "city": "Waco",
    "state": "TX",
    "indoor": false,
    "grass": false,
    "lat": 31.5582247,
    "lon": -97.1156821,
    "source": "combined_espn"
  },
  "l&n federal credit union stadium|louisville|ky": {
    "name": "L&N Federal Credit Union Stadium",
    "city": "Louisville",
    "state": "KY",
    "indoor": false,
    "grass": false,
    "lat": 38.2060161,
    "lon": -85.7587734,
    "source": "combined_espn"
  },
  "williams-brice stadium|columbia|sc": {
    "name": "Williams-Brice Stadium",
    "city": "Columbia",
    "state": "SC",
    "indoor": false,
    "grass": true,
    "lat": 33.9731167,
    "lon": -81.0191564,
    "source": "combined_espn"
  },
  "bill snyder family stadium|manhattan|ks": {
    "name": "Bill Snyder Family Stadium",
    "city": "Manhattan",
    "state": "KS",
    "indoor": false,
    "grass": false,
    "lat": 39.2020422,
    "lon": -96.5937978,
    "source": "combined_espn"
  },
  "boone pickens stadium|stillwater|ok": {
    "name": "Boone Pickens Stadium",
    "city": "Stillwater",
    "state": "OK",
    "indoor": false,
    "grass": false,
    "lat": 36.1256929,
    "lon": -97.0668698,
    "source": "combined_espn"
  },
  "kelly/shorts stadium|mount pleasant|mi": {
    "name": "Kelly/Shorts Stadium",
    "city": "Mount Pleasant",
    "state": "MI",
    "indoor": false,
    "grass": false,
    "lat": 43.5776228,
    "lon": -84.7710514,
    "source": "combined_espn"
  },
  "yager stadium|oxford|oh": {
    "name": "Yager Stadium",
    "city": "Oxford",
    "state": "OH",
    "indoor": false,
    "grass": false,
    "lat": 39.5194147,
    "lon": -84.7330855,
    "source": "combined_espn"
  },
  "lavell edwards stadium|provo|ut": {
    "name": "LaVell Edwards Stadium",
    "city": "Provo",
    "state": "UT",
    "indoor": false,
    "grass": true,
    "lat": 40.2575283,
    "lon": -111.654558,
    "source": "combined_espn"
  },
  "delaware stadium|newark|de": {
    "name": "Delaware Stadium",
    "city": "Newark",
    "state": "DE",
    "indoor": false,
    "grass": false,
    "lat": 39.6616707,
    "lon": -75.7488991,
    "source": "combined_espn"
  },
  "shell energy stadium|houston|tx": {
    "name": "Shell Energy Stadium",
    "city": "Houston",
    "state": "TX",
    "indoor": false,
    "grass": true,
    "lat": 29.7520265,
    "lon": -95.3523409,
    "source": "combined_espn"
  },
  "joan c. edwards stadium|huntington|wv": {
    "name": "Joan C. Edwards Stadium",
    "city": "Huntington",
    "state": "WV",
    "indoor": false,
    "grass": false,
    "lat": 38.4248685,
    "lon": -82.4210088,
    "source": "combined_espn"
  },
  "amfirst stadium|jacksonville|al": {
    "name": "AmFirst Stadium",
    "city": "Jacksonville",
    "state": "AL",
    "indoor": false,
    "grass": false,
    "lat": 33.8203687,
    "lon": -85.7661255,
    "source": "combined_espn"
  },
  "robert w. plaster stadium|springfield|mo": {
    "name": "Robert W. Plaster Stadium",
    "city": "Springfield",
    "state": "MO",
    "indoor": false,
    "grass": false,
    "lat": 37.1976101,
    "lon": -93.2798754,
    "source": "combined_espn"
  },
  "kidd brewer stadium|boone|nc": {
    "name": "Kidd Brewer Stadium",
    "city": "Boone",
    "state": "NC",
    "indoor": false,
    "grass": false,
    "lat": 36.2114886,
    "lon": -81.6855717,
    "source": "combined_espn"
  },
  "aggie memorial stadium|las cruces|nm": {
    "name": "Aggie Memorial Stadium",
    "city": "Las Cruces",
    "state": "NM",
    "indoor": false,
    "grass": false,
    "lat": 32.2796361,
    "lon": -106.7411115,
    "source": "combined_espn"
  },
  "cajun field|lafayette|la": {
    "name": "Cajun Field",
    "city": "Lafayette",
    "state": "LA",
    "indoor": false,
    "grass": false,
    "lat": 30.2158727,
    "lon": -92.041736,
    "source": "combined_espn"
  },
  "ufcu stadium|san marcos|tx": {
    "name": "UFCU Stadium",
    "city": "San Marcos",
    "state": "TX",
    "indoor": false,
    "grass": false,
    "lat": 29.8910592,
    "lon": -97.9255534,
    "source": "combined_espn"
  },
  "chapman stadium|tulsa|ok": {
    "name": "Chapman Stadium",
    "city": "Tulsa",
    "state": "OK",
    "indoor": false,
    "grass": false,
    "lat": 36.1486627,
    "lon": -95.9438583,
    "source": "combined_espn"
  },
  "husky stadium|seattle|wa": {
    "name": "Husky Stadium",
    "city": "Seattle",
    "state": "WA",
    "indoor": false,
    "grass": false,
    "lat": 47.6503736,
    "lon": -122.301976,
    "source": "combined_espn"
  },
  "bank of america stadium|charlotte|nc": {
    "name": "Bank of America Stadium",
    "city": "Charlotte",
    "state": "NC",
    "indoor": false,
    "grass": false,
    "lat": 35.225774,
    "lon": -80.8528276,
    "source": "combined_espn"
  },
  "lumen field|seattle|wa": {
    "name": "Lumen Field",
    "city": "Seattle",
    "state": "WA",
    "indoor": false,
    "grass": false,
    "lat": 47.5953459,
    "lon": -122.3316443,
    "source": "combined_espn"
  }
}